City_ID,City,Lat,Lng,Max Temp,Humidity,Cloudiness,Wind Speed,Country,Date
0,vaini,-21.2,-175.2,77.0,61,20,10.29,TO,1595292455
1,punta arenas,-53.15,-70.92,30.2,92,8,6.93,CL,1595292251
2,souillac,-20.52,57.52,68.0,68,75,11.41,MU,1595292473
3,atuona,-9.8,-139.03,80.24,80,94,18.07,PF,1595292458
4,lesozavodsk,45.48,133.42,71.98,77,100,6.44,RU,1595292918
5,bluff,-46.6,168.33,50.9,77,100,12.73,NZ,1595292457
6,vila velha,-20.33,-40.29,75.0,94,40,3.36,BR,1595292510
7,port elizabeth,-33.92,25.57,55.4,100,75,1.12,ZA,1595292478
8,ketchikan,55.34,-131.65,59.0,100,90,8.05,US,1595292919
9,new norfolk,-42.78,147.06,54.0,77,90,1.99,AU,1595292919
10,aykhal,66.0,111.5,51.8,93,90,8.95,RU,1595292919
11,nanortalik,60.14,-45.24,47.3,68,39,2.26,GL,1595292919
12,levelland,33.59,-102.38,93.2,26,40,13.87,US,1595292920
13,chokurdakh,70.63,147.92,80.01,36,43,15.99,RU,1595292920
14,amuntai,-2.42,115.25,82.63,71,3,2.15,ID,1595292722
15,busselton,-33.65,115.33,50.0,75,30,4.0,AU,1595292920
16,mansa,29.98,75.38,75.04,84,100,11.56,IN,1595292920
17,ushuaia,-54.8,-68.3,28.4,92,0,3.36,AR,1595292921
18,hovd,48.01,91.64,72.82,41,100,1.7,MN,1595292764
19,vila,42.03,-8.16,73.99,82,1,2.24,PT,1595292921
20,omsukchan,62.53,155.8,68.63,39,0,5.88,RU,1595292921
21,margate,51.38,1.39,55.99,72,0,2.59,GB,1595292758
22,tabas,33.6,56.92,91.4,17,0,6.93,IR,1595292921
23,yellowknife,62.46,-114.35,71.6,53,20,11.41,CA,1595292922
24,san quintin,30.48,-115.95,72.46,60,0,17.69,MX,1595292922
25,dunedin,-45.87,170.5,55.67,56,0,8.48,NZ,1595292922
26,bambous virieux,-20.34,57.76,69.01,68,75,11.41,MU,1595292904
27,bethel,41.37,-73.41,82.4,58,1,5.82,US,1595292748
28,vila franca do campo,37.72,-25.43,66.2,77,20,6.93,PT,1595292740
29,saint george,37.1,-113.58,102.2,11,1,5.82,US,1595292758
30,kavieng,-2.57,150.8,85.23,69,1,9.17,PG,1595292923
31,oksfjord,70.24,22.35,55.4,93,100,4.7,NO,1595292923
32,kaeo,-35.1,173.78,60.01,3,84,7.0,NZ,1595292923
33,mataura,-46.19,168.86,51.19,75,100,5.3,NZ,1595292923
34,mahebourg,-20.41,57.7,68.0,68,75,11.41,MU,1595292923
35,komsomolskiy,40.43,71.72,73.4,40,0,9.17,UZ,1595292923
36,milot,19.62,-72.22,78.85,82,75,7.87,HT,1595292924
37,san cristobal,7.77,-72.22,66.94,91,100,4.65,VE,1595292924
38,banda aceh,5.56,95.32,81.32,76,100,3.49,ID,1595292924
39,nikolskoye,59.7,30.79,64.0,82,97,4.47,RU,1595292924
40,tansen,27.87,83.55,64.54,100,100,1.28,NP,1595292924
41,ostrovnoy,68.05,39.51,61.21,62,0,8.32,RU,1595292925
42,chuy,-33.7,-53.46,67.06,86,74,8.55,UY,1595292925
43,rikitea,-23.12,-134.97,67.55,66,56,15.64,PF,1595292925
44,hilo,19.73,-155.09,84.2,62,90,10.29,US,1595292777
45,pierre,44.37,-100.35,75.0,73,1,5.82,US,1595292743
46,ngaoundere,7.32,13.58,63.36,92,100,0.56,CM,1595292925
47,qaanaaq,77.48,-69.36,47.93,71,94,1.43,GL,1595292926
48,odienne,9.51,-7.57,71.28,95,72,4.07,CI,1595292926
49,batagay,67.63,134.63,85.75,45,71,6.11,RU,1595292926
50,acapulco,16.86,-99.89,86.0,79,90,8.05,MX,1595292722
51,albany,42.6,-73.97,82.0,75,0,5.99,US,1595292926
52,bombay,19.01,72.85,82.4,88,75,4.7,IN,1595292926
53,victoria,22.29,114.16,88.0,66,56,5.99,HK,1595292894
54,katsuura,35.13,140.3,79.0,94,75,2.24,JP,1595292927
55,cape town,-33.93,18.42,48.2,93,0,1.12,ZA,1595292927
56,honjo,36.23,139.18,80.01,90,100,1.01,JP,1595292927
57,mount isa,-20.73,139.5,68.0,24,83,10.29,AU,1595292754
58,kapaa,22.08,-159.32,84.2,62,40,13.87,US,1595292927
59,leshukonskoye,64.9,45.76,56.62,79,0,4.72,RU,1595292928
60,pak phanang,8.35,100.2,78.8,94,20,2.24,TH,1595292928
61,airai,-8.93,125.41,67.57,56,100,3.76,TL,1595292928
62,oranjemund,-28.55,16.43,61.88,39,0,2.01,NA,1595292908
63,namatanai,-3.67,152.43,85.91,66,5,4.16,PG,1595292654
64,mehamn,71.04,27.85,56.12,89,100,7.25,NO,1595292749
65,chase,50.82,-119.69,87.8,25,20,2.73,CA,1595292929
66,juba,4.85,31.58,67.55,95,25,1.72,SS,1595292913
67,hobart,-42.88,147.33,53.6,71,40,10.29,AU,1595292657
68,bulgan,48.81,103.53,62.8,75,0,4.14,MN,1595292929
69,tuatapere,-46.13,167.68,51.08,77,55,7.92,NZ,1595292929
70,naica,27.85,-105.48,88.95,26,90,9.33,MX,1595292929
71,tasiilaq,65.61,-37.64,44.6,87,43,8.05,GL,1595292929
72,nalut,30.33,10.85,73.33,60,0,19.39,LY,1595292930
73,puerto ayora,-0.74,-90.35,70.0,85,98,5.01,EC,1595292930
74,kavaratti,10.57,72.64,82.63,80,100,21.12,IN,1595292930
75,ambunti,-4.24,142.84,88.77,61,60,1.63,PG,1595292930
76,barrow,71.29,-156.79,35.6,80,75,6.93,US,1595292930
77,provideniya,64.38,-173.3,50.0,81,90,11.18,RU,1595292931
78,mar del plata,-38.0,-57.56,50.0,100,90,20.8,AR,1595292750
79,ratnagiri,16.98,73.3,79.61,86,100,8.21,IN,1595292931
80,lenart,46.58,15.83,62.6,88,0,1.12,SI,1595292931
81,iqaluit,63.75,-68.51,44.6,100,90,1.66,CA,1595292931
82,sturgis,41.8,-85.42,75.2,83,1,5.44,US,1595292931
83,beringovskiy,63.05,179.32,46.71,77,100,12.35,RU,1595292931
84,kolokani,13.57,-8.03,75.99,84,60,3.24,ML,1595292932
85,tilichiki,60.47,166.1,57.13,65,85,3.98,RU,1595292646
86,meulaboh,4.14,96.13,77.72,87,100,1.01,ID,1595292932
87,kruisfontein,-34.0,24.73,55.06,93,0,6.2,ZA,1595292932
88,roald,62.58,6.13,51.8,81,100,11.41,NO,1595292932
89,keti bandar,24.14,67.45,85.73,77,100,22.68,PK,1595292766
90,harlingen,26.19,-97.7,89.6,59,1,11.41,US,1595292933
91,bengkulu,-3.8,102.27,78.31,83,59,4.61,ID,1595292760
92,lebu,-37.62,-73.65,50.58,83,100,12.1,CL,1595292933
93,karpathos,35.51,27.21,76.19,75,0,17.45,GR,1595292933
94,butaritari,3.07,172.79,83.03,67,100,2.35,KI,1595292934
95,manoel urbano,-8.84,-69.26,76.48,72,48,0.29,BR,1595292934
96,port alfred,-33.59,26.89,58.35,72,0,3.2,ZA,1595292934
97,xuzhou,34.18,117.16,78.69,76,100,5.64,CN,1595292934
98,oktyabrskiy,54.48,53.47,58.55,89,0,2.13,RU,1595292934
99,lata,40.16,-8.33,66.99,70,92,4.12,PT,1595292935
100,jiangyou,31.77,104.72,69.06,88,100,2.68,CN,1595292935
101,hermanus,-34.42,19.23,59.0,59,4,1.01,ZA,1595292935
102,brun,39.53,46.31,67.41,51,0,4.97,AM,1595292935
103,bredasdorp,-34.53,20.04,59.0,93,72,6.93,ZA,1595292935
104,kaitangata,-46.28,169.85,53.6,66,0,5.57,NZ,1595292935
105,te anau,-45.42,167.72,46.99,84,81,5.21,NZ,1595292936
106,canto do buriti,-8.11,-42.94,73.51,60,100,4.74,BR,1595292936
107,kodiak,57.79,-152.41,75.2,44,1,13.87,US,1595292891
108,biltine,14.53,20.92,75.34,72,41,5.68,TD,1595292936
109,ubatuba,-23.43,-45.07,69.51,56,0,3.58,BR,1595292895
110,upernavik,72.79,-56.15,48.2,54,0,8.28,GL,1595292936
111,barcelos,41.54,-8.62,73.99,100,0,3.06,PT,1595292936
112,takoradi,4.88,-1.76,75.22,92,99,6.82,GH,1595292937
113,tayu,-6.54,111.05,80.65,75,6,8.39,ID,1595292937
114,dikson,73.51,80.55,39.76,96,100,13.02,RU,1595292937
115,xining,36.62,101.77,62.17,53,93,3.33,CN,1595292937
116,batabano,22.72,-82.29,82.4,74,20,9.17,CU,1595292937
117,popondetta,-8.75,148.25,86.43,59,16,3.6,PG,1595292937
118,ronne,55.1,14.71,57.2,76,9,4.7,DK,1595292938
119,zigos,41.02,24.38,71.01,73,0,3.0,GR,1595292938
120,sao filipe,14.9,-24.5,76.01,83,61,8.19,CV,1595292938
121,georgetown,5.41,100.34,80.6,94,20,2.24,MY,1595292833
122,itoman,26.12,127.67,87.8,74,40,4.7,JP,1595292852
123,bathsheba,13.22,-59.52,82.4,69,20,16.11,BB,1595292938
124,lompoc,34.64,-120.46,68.0,64,0,17.22,US,1595292653
125,benguela,-12.58,13.41,66.74,74,0,3.62,AO,1595292939
126,zhanaozen,43.3,52.8,81.93,23,0,11.7,KZ,1595292939
127,alofi,-19.06,-169.92,82.4,83,75,9.17,NU,1595292939
128,pangody,65.85,74.49,55.72,70,100,7.9,RU,1595292939
129,jamestown,42.1,-79.24,73.99,56,1,8.05,US,1595292940
130,balakhninskiy,58.01,114.28,51.71,88,100,4.59,RU,1595292940
131,avarua,-21.21,-159.78,78.8,74,100,19.46,CK,1595292940
132,deputatskiy,69.3,139.9,74.44,49,50,6.17,RU,1595292760
133,pevek,69.7,170.31,46.89,59,0,2.59,RU,1595292940
134,beyneu,45.32,55.2,81.34,26,0,5.37,KZ,1595292940
135,nizwa,22.93,57.53,83.17,63,100,1.72,OM,1595292941
136,muromtsevo,56.37,75.24,55.45,82,4,9.22,RU,1595292941
137,thompson,55.74,-97.86,66.2,72,75,5.82,CA,1595292941
138,san luis,-33.3,-66.34,48.15,75,35,9.71,AR,1595292941
139,nome,64.5,-165.41,55.99,81,90,11.41,US,1595292941
140,arraial do cabo,-22.97,-42.03,70.54,85,0,18.57,BR,1595292941
141,orneta,54.11,20.13,58.26,94,37,7.36,PL,1595292941
142,ambilobe,-13.2,49.05,62.87,74,34,3.36,MG,1595292942
143,merauke,-8.47,140.33,79.95,75,42,9.64,ID,1595292942
144,mont-joli,48.58,-68.19,77.0,50,20,24.16,CA,1595292718
145,half moon bay,37.46,-122.43,77.0,56,5,13.87,US,1595292942
146,mnogovershinnyy,53.94,139.92,54.82,91,100,10.0,RU,1595292943
147,madimba,-10.4,40.33,69.3,81,35,10.65,TZ,1595292943
148,vao,-22.67,167.48,68.59,64,100,11.99,NC,1595292943
149,tymovskoye,50.85,142.66,67.53,72,100,7.92,RU,1595292778
150,saskylakh,71.92,114.08,58.75,47,99,9.84,RU,1595292943
151,trojes,41.76,19.96,62.6,88,0,2.24,AL,1595292943
152,ancud,-41.87,-73.82,44.6,93,40,3.36,CL,1595292944
153,fortuna,40.6,-124.16,64.99,82,1,16.11,US,1595292944
154,hamilton,39.18,-84.53,84.99,74,75,4.7,US,1595292944
155,magadan,59.57,150.8,63.66,61,0,4.97,RU,1595292944
156,hunchun,42.87,130.36,79.5,55,0,8.48,CN,1595292944
157,geraldton,-28.77,114.6,53.6,71,0,17.22,AU,1595292944
158,ribeira grande,38.52,-28.7,69.39,71,96,3.69,PT,1595292945
159,ginda,30.69,78.49,64.63,81,97,1.05,IN,1595292945
160,kamenka,51.32,42.77,61.0,84,38,4.41,RU,1595292945
161,manggar,-2.88,108.27,82.42,74,0,13.4,ID,1595292945
162,viedma,-40.81,-63.0,46.99,92,100,3.0,AR,1595292772
163,portland,45.52,-122.68,93.99,26,20,6.93,US,1595292903
164,severo-kurilsk,50.68,156.12,54.54,73,9,4.99,RU,1595292945
165,esperance,-33.87,121.9,48.2,76,100,10.29,AU,1595292946
166,terney,45.05,136.61,65.16,91,100,8.68,RU,1595292946
167,cherskiy,68.75,161.3,75.45,31,100,4.94,RU,1595292946
168,jinchang,38.5,102.17,78.28,26,99,1.32,CN,1595292946
169,lorengau,-2.02,147.27,85.68,64,23,8.01,PG,1595292946
170,clyde river,70.47,-68.59,44.6,93,90,11.41,CA,1595292742
171,lhokseumawe,5.18,97.15,79.12,81,100,4.76,ID,1595292947
172,vestmannaeyjar,63.44,-20.27,49.62,71,0,3.31,IS,1595292766
173,necochea,-38.55,-58.74,52.0,93,100,11.99,AR,1595292947
174,coos bay,43.37,-124.22,81.0,82,75,20.8,US,1595292947
175,husavik,66.04,-17.34,46.4,81,94,3.36,IS,1595292947
176,tuktoyaktuk,69.45,-133.04,42.8,81,90,9.17,CA,1595292948
177,palmer,42.16,-72.33,84.99,51,40,6.93,US,1595292948
178,celestun,20.87,-90.4,82.8,74,17,13.49,MX,1595292948
179,pizhma,57.86,47.12,59.86,97,100,4.25,RU,1595292948
180,eau claire,44.81,-91.5,77.0,47,1,2.86,US,1595292937
181,vlasim,49.71,14.9,61.0,93,68,1.9,CZ,1595292948
182,cheney,47.49,-117.58,91.4,20,20,6.93,US,1595292948
183,barghat,22.03,79.72,75.56,90,100,6.71,IN,1595292949
184,kuytun,54.34,101.5,59.2,61,86,4.81,RU,1595292949
185,asau,46.43,26.4,55.0,97,1,4.92,RO,1595292949
186,naze,28.37,129.48,86.0,79,75,5.82,JP,1595292949
187,guacimo,10.21,-83.68,71.6,88,75,6.93,CR,1595292949
188,panama city,8.99,-79.52,78.8,88,100,10.29,PA,1595292907
189,karasburg,-28.02,18.75,58.69,29,0,12.1,NA,1595292950
190,utevka,52.9,50.95,59.83,84,0,3.29,RU,1595292950
191,magadi,12.97,77.23,68.0,100,40,2.24,IN,1595292950
192,amapa,1.0,-52.0,71.02,96,57,1.23,BR,1595292950
193,hofn,64.25,-15.21,52.3,77,85,1.07,IS,1595292950
194,shelburne,44.08,-80.2,68.0,72,90,4.7,CA,1595292951
195,villaviciosa,43.48,-5.44,66.99,80,27,3.0,ES,1595292951
196,carutapera,-1.2,-46.02,74.66,90,15,4.56,BR,1595292951
197,ilulissat,69.22,-51.1,53.6,50,100,2.24,GL,1595292767
198,laguna,38.42,-121.42,84.2,39,1,10.29,US,1595292951
199,nishihara,26.18,127.76,87.8,83,40,5.82,JP,1595292952
200,karoi,-16.81,29.69,48.06,88,0,4.85,ZW,1595292952
201,jurm,36.86,70.83,66.02,32,53,0.83,AF,1595292952
202,guiong,6.42,122.03,82.4,88,40,5.82,PH,1595292952
203,sitka,57.05,-135.33,57.2,93,90,3.36,US,1595292952
204,ayan,56.45,138.17,52.48,95,100,14.72,RU,1595292952
205,nouadhibou,20.93,-17.03,75.2,73,75,2.24,MR,1595292952
206,senneterre,48.38,-77.23,60.8,72,75,3.36,CA,1595292803
207,zyryanka,65.75,150.85,79.68,37,51,20.36,RU,1595292769
208,coquimbo,-29.95,-71.34,53.6,81,6,3.36,CL,1595292953
209,juegang,32.32,121.19,77.38,93,100,7.38,CN,1595292953
210,ponta do sol,32.67,-17.1,71.6,64,40,12.75,PT,1595292953
211,spornoye,50.84,37.29,62.6,72,0,4.47,RU,1595292953
212,tocopilla,-22.09,-70.2,60.22,65,100,6.42,CL,1595292799
213,opovo,45.05,20.43,68.0,93,0,5.03,RS,1595292954
214,saldanha,-33.01,17.94,46.4,81,0,1.12,ZA,1595292954
215,seymchan,62.88,152.43,76.06,38,1,9.71,RU,1595292954
216,nhulunbuy,-12.23,136.77,78.8,69,90,12.75,AU,1595292955
217,baykit,61.67,96.37,64.06,54,0,2.01,RU,1595292955
218,helong,42.54,129.0,81.66,43,0,2.39,CN,1595292955
219,talnakh,69.49,88.4,51.8,100,90,6.71,RU,1595292765
220,makakilo city,21.35,-158.09,89.6,43,20,5.82,US,1595292955
221,taoudenni,22.68,-3.98,96.12,26,25,6.38,ML,1595292788
222,pacific grove,36.62,-121.92,68.0,68,1,10.29,US,1595292751
223,balaipungut,1.05,101.28,77.0,88,20,8.05,ID,1595292956
224,richards bay,-28.78,32.04,56.64,80,0,5.61,ZA,1595292956
225,waipawa,-41.41,175.52,54.0,85,100,9.28,NZ,1595292956
226,dargaville,-35.93,173.88,58.39,89,80,7.83,NZ,1595292956
227,jutai,-5.18,-68.9,73.81,93,29,1.74,BR,1595292956
228,pahrump,36.21,-115.98,102.99,13,0,10.0,US,1595292957
229,lukulu,-14.37,23.24,53.87,57,0,5.12,ZM,1595292957
230,carnarvon,-24.87,113.63,57.2,71,0,5.82,AU,1595292957
231,huarmey,-10.07,-78.15,60.39,86,11,7.76,PE,1595292958
232,manokwari,-0.87,134.08,82.81,71,100,5.57,ID,1595292958
233,tupelo,34.26,-88.7,89.6,52,40,8.05,US,1595292958
234,sabha,27.04,14.43,82.24,34,0,15.5,LY,1595292750
235,port hedland,-20.32,118.57,71.6,33,0,17.22,AU,1595292754
236,cochrane,51.18,-114.47,72.0,49,20,6.93,CA,1595292959
237,bodden town,19.28,-81.25,82.4,83,40,3.36,KY,1595292959
238,redmond,47.67,-122.12,87.01,53,0,5.91,US,1595292959
239,cascais,38.7,-9.42,79.0,44,40,16.11,PT,1595292959
240,minden,52.28,8.92,53.01,93,0,2.24,DE,1595292960
241,port moresby,-9.44,147.18,84.2,74,40,13.87,PG,1595292924
242,moree,-29.47,149.85,53.6,50,32,4.7,AU,1595292960
243,akyab,20.15,92.9,81.63,83,100,9.31,MM,1595292960
244,mahajanga,-15.72,46.32,69.8,56,20,11.41,MG,1595292960
245,chumikan,54.72,135.31,52.32,96,100,24.74,RU,1595292960
246,monaco-ville,43.73,7.42,73.4,83,0,5.82,FR,1595292961
247,honningsvag,70.98,25.97,53.94,91,100,5.59,NO,1595292961
248,hithadhoo,-0.6,73.08,84.27,76,100,13.2,MV,1595292961
249,ayr,55.46,-4.63,53.6,76,20,5.82,GB,1595292826
250,kysyl-syr,63.9,122.76,66.87,93,100,12.86,RU,1595292962
251,cancun,21.17,-86.85,84.2,74,75,3.36,MX,1595292962
252,surgut,61.25,73.42,59.0,72,0,8.95,RU,1595292962
253,faya,18.39,42.45,66.2,72,100,3.98,SA,1595292963
254,araouane,18.9,-3.53,98.26,25,86,11.88,ML,1595292963
255,evanston,42.04,-87.69,77.0,69,1,4.7,US,1595292923
256,broome,42.25,-75.83,77.0,53,1,5.82,US,1595292964
257,east london,-33.02,27.91,62.02,45,0,4.83,ZA,1595292964
258,cookeville,36.16,-85.5,77.0,94,40,4.7,US,1595292741
259,cabo san lucas,22.89,-109.91,95.0,58,20,16.11,MX,1595292690
260,grindavik,63.84,-22.43,46.4,81,40,2.24,IS,1595292965
261,marawi,8.0,124.29,82.0,81,45,1.01,PH,1595292965
262,ziro,27.63,93.83,59.88,100,100,1.28,IN,1595292965
263,aklavik,68.22,-135.01,50.0,66,75,11.41,CA,1595292966
264,saint-pierre,-21.34,55.48,64.4,63,90,6.93,RE,1595292966
265,todos santos,23.45,-110.22,78.01,79,0,1.01,MX,1595292966
266,kampot,10.62,104.18,82.4,83,20,2.24,KH,1595292966
267,rock sound,24.9,-76.2,83.77,78,74,19.17,BS,1595292966
268,port-cartier,50.03,-66.87,75.2,57,40,13.87,CA,1595292967
269,hasaki,35.73,140.83,75.99,94,75,4.7,JP,1595292967
270,culebra,18.3,-65.3,84.2,83,1,4.7,PR,1595292967
271,champerico,14.3,-91.92,83.73,75,100,4.88,GT,1595292967
272,arica,-18.48,-70.3,54.23,85,41,2.66,CL,1595292968
273,polur,12.5,79.13,80.26,81,100,0.49,IN,1595292968
274,oudtshoorn,-33.59,22.2,51.8,100,0,2.24,ZA,1595292968
275,katobu,-4.94,122.53,79.88,80,88,5.61,ID,1595292968
276,corning,42.14,-77.05,82.4,45,1,5.82,US,1595292800
277,norman wells,65.28,-126.83,64.4,77,90,10.29,CA,1595292968
278,khasan,42.43,130.64,75.97,63,0,10.83,RU,1595292969
279,soe,-9.86,124.28,72.19,67,100,7.4,ID,1595292764
280,inuvik,68.35,-133.72,50.0,66,75,11.41,CA,1595292847
281,ishigaki,24.34,124.16,87.8,79,20,4.7,JP,1595292969
282,colinas,-6.03,-44.25,80.56,48,100,3.29,BR,1595292969
283,witbank,-25.87,29.23,41.43,51,0,4.88,ZA,1595292969
284,rudnichnyy,59.62,52.47,58.77,79,100,10.89,RU,1595292970
285,camacha,33.08,-16.33,69.8,77,40,19.46,PT,1595292970
286,sao joao da barra,-21.64,-41.05,70.9,86,0,11.34,BR,1595292754
287,pisco,-13.7,-76.22,61.0,87,1,11.41,PE,1595292970
288,castro,-24.79,-50.01,55.24,83,0,4.38,BR,1595292970
289,sidney,-33.87,151.21,60.01,54,20,18.34,AU,1595292928
290,moerai,-22.43,-151.33,70.29,75,74,24.49,PF,1595292970
291,veraval,20.9,70.37,83.46,78,19,14.27,IN,1595292971
292,kargat,55.2,80.28,58.19,90,100,10.98,RU,1595292971
293,porto novo,6.5,2.6,77.0,94,20,5.82,BJ,1595292971
294,terrace,54.52,-128.6,62.6,93,90,6.93,CA,1595292971
295,neiafu,-18.65,-173.98,78.8,88,75,3.36,TO,1595292971
296,mogadishu,2.04,45.34,76.93,82,100,20.96,SO,1595292971
297,ahipara,-35.17,173.17,60.3,83,9,12.77,NZ,1595292972
298,buluang,13.31,123.34,86.07,68,93,2.51,PH,1595292972
299,abbeville,50.1,1.83,53.01,82,0,5.86,FR,1595292972
300,solnechnyy,50.72,136.63,65.91,95,100,5.44,RU,1595292972
301,los llanos de aridane,28.66,-17.92,73.4,69,75,16.11,ES,1595292972
302,san patricio,19.22,-104.7,86.0,79,20,20.8,MX,1595292972
303,dingle,11.0,122.67,85.06,73,0,4.88,PH,1595292755
304,lillesand,58.25,8.38,53.6,62,0,5.82,NO,1595292973
305,buraydah,26.33,43.98,91.4,21,0,3.36,SA,1595292973
306,mariestad,58.71,13.82,53.6,100,0,6.93,SE,1595292973
307,lima,-12.04,-77.03,60.8,77,90,6.93,PE,1595292973
308,lesnoy,57.62,63.08,54.45,82,53,8.23,RU,1595292973
309,sungaipenuh,-2.08,101.38,67.42,95,100,3.58,ID,1595292974
310,mandalgovi,45.76,106.27,73.78,31,88,10.56,MN,1595292974
311,valparaiso,-33.04,-71.63,55.4,87,40,4.7,CL,1595292974
312,padang,-0.95,100.35,80.96,71,88,5.03,ID,1595292974
313,mount pleasant,32.79,-79.86,84.99,83,1,10.67,US,1595292963
314,kapchorwa,1.4,34.45,56.93,93,100,1.95,UG,1595292975
315,robertsport,6.75,-11.37,76.51,88,100,13.42,LR,1595292975
316,mount gambier,-37.83,140.77,48.2,100,90,4.7,AU,1595292922
317,spirit river,55.78,-118.84,77.0,41,75,4.7,CA,1595292734
318,qasigiannguit,68.82,-51.19,53.6,50,100,2.24,GL,1595292975
319,guerrero negro,27.98,-114.06,78.4,49,0,16.37,MX,1595292844
320,mirnyy,62.54,113.96,57.2,100,90,6.71,RU,1595292976
321,ilongero,-4.67,34.87,54.16,85,0,12.21,TZ,1595292976
322,kaduy,59.2,37.15,59.14,95,100,3.11,RU,1595292976
323,zavetnoye,47.12,43.89,73.98,46,21,7.54,RU,1595292976
324,prince rupert,54.32,-130.32,60.8,100,90,9.17,CA,1595292862
325,luanda,-8.84,13.23,66.76,91,22,6.89,AO,1595292976
326,sal rei,16.18,-22.92,78.8,78,75,8.05,CV,1595292976
327,port lincoln,-34.73,135.87,54.63,69,78,6.2,AU,1595292977
328,eyl,7.98,49.82,80.19,53,95,27.27,SO,1595292977
329,buchanan,5.88,-10.05,75.2,100,75,4.7,LR,1595292977
330,taltal,-25.4,-70.48,59.32,67,100,3.13,CL,1595292977
331,luau,-10.71,22.22,53.92,56,0,5.44,AO,1595292977
332,inirida,3.87,-67.92,73.45,94,95,1.74,CO,1595292977
333,kupang,-10.17,123.58,82.4,58,20,11.41,ID,1595292978
334,saint-philippe,-21.36,55.77,64.4,63,90,6.93,RE,1595292978
335,maine-soroa,13.21,12.02,81.23,61,83,14.29,NE,1595292978
336,saint-ambroise,48.55,-71.33,68.0,60,75,13.87,CA,1595292978
337,ocampo,21.65,-101.5,68.99,53,63,6.29,MX,1595292978
338,yerbogachen,61.28,108.01,61.79,55,93,7.49,RU,1595292979
339,port hardy,50.7,-127.42,66.2,77,75,9.17,CA,1595292979
340,urucui,-7.23,-44.56,78.42,50,3,8.14,BR,1595292979
341,ciempozuelos,40.16,-3.62,82.0,42,0,9.17,ES,1595292979
342,vanavara,60.34,102.28,60.71,56,18,2.77,RU,1595292979
343,bacolod,10.67,122.95,84.15,76,93,4.09,PH,1595292922
344,christchurch,-43.53,172.63,62.01,51,0,5.82,NZ,1595292815
345,mvuma,-19.28,30.53,44.56,96,0,5.19,ZW,1595292980
346,asyut,27.18,31.18,78.8,34,0,9.17,EG,1595292980
347,channel-port aux basques,47.57,-59.14,64.18,82,100,8.3,CA,1595292980
348,bijie,27.31,105.29,68.23,86,99,11.92,CN,1595292980
349,coahuayana,18.73,-103.68,82.4,74,75,11.41,MX,1595292980
350,kangalassy,62.35,129.96,73.4,56,20,13.42,RU,1595292981
351,matay,28.42,30.78,75.96,60,0,15.08,EG,1595292981
352,vanderhoof,54.02,-124.02,79.93,39,100,3.71,CA,1595292981
353,takhtamygda,54.1,123.57,63.59,61,19,7.54,RU,1595292981
354,antsirabe,-19.85,47.03,40.86,90,51,4.14,MG,1595292981
355,iskenderun,36.59,36.17,80.6,69,0,6.93,TR,1595292981
356,maceio,-9.67,-35.74,73.4,83,40,2.24,BR,1595292981
357,tiksi,71.69,128.87,45.95,88,100,9.13,RU,1595292982
358,yarega,63.44,53.58,53.08,78,0,5.84,RU,1595292982
359,ryotsu,38.08,138.43,75.2,100,75,1.12,JP,1595292982
360,sandwick,60.0,-1.25,51.8,81,86,6.93,GB,1595292982
361,nadvoitsy,63.87,34.32,59.32,72,78,2.89,RU,1595292982
362,mananjary,-21.22,48.33,62.55,77,56,4.43,MG,1595292982
363,narsaq,60.92,-46.05,53.6,46,35,5.82,GL,1595292983
364,eustis,28.85,-81.69,86.0,66,1,11.41,US,1595292982
365,nyurba,63.28,118.33,61.03,98,100,4.09,RU,1595292983
366,portel,-1.94,-50.82,77.2,78,37,1.28,BR,1595292983
367,beachwood,41.46,-81.51,80.6,54,40,4.7,US,1595292983
368,lasa,46.62,10.7,57.2,87,5,1.95,IT,1595292983
369,mayo,38.89,-76.51,82.4,83,20,5.82,US,1595292767
370,mokhsogollokh,61.47,128.92,71.15,60,100,12.24,RU,1595292984
371,tsagan aman,47.56,46.72,74.8,51,59,6.33,RU,1595292984
372,ambon,-3.7,128.18,79.0,94,75,4.7,ID,1595292984
373,doha,25.29,51.53,95.0,56,100,1.12,QA,1595292940
374,hit,33.64,42.83,91.13,14,0,15.19,IQ,1595292984
375,novopokrovka,49.84,36.55,60.8,82,0,4.47,UA,1595292984
376,guangyuan,32.44,105.82,64.99,90,100,3.44,CN,1595292879
377,ulladulla,-35.35,150.47,57.2,41,0,12.75,AU,1595292985
378,lashio,22.93,97.75,70.16,98,100,1.12,MM,1595292985
379,oarai,36.32,140.6,69.8,94,75,4.7,JP,1595292985
380,kjollefjord,70.95,27.35,55.99,88,100,4.74,NO,1595292985
381,tonj,7.27,28.68,68.86,96,87,1.83,SS,1595292985
382,olinda,-8.01,-34.86,78.8,65,20,11.41,BR,1595292826
383,tromso,69.65,18.96,53.6,87,90,16.11,NO,1595292986
384,antofagasta,-23.65,-70.4,57.2,76,90,6.93,CL,1595292699
385,zhigalovo,54.81,105.16,62.69,49,76,2.21,RU,1595292986
386,port augusta,-32.5,137.77,54.0,81,75,6.93,AU,1595292986
387,bandar,2.05,99.75,76.96,89,98,2.08,ID,1595292986
388,smyrna,33.88,-84.51,87.8,55,75,6.93,US,1595292987
389,cherkessk,44.22,42.06,64.8,82,0,4.05,RU,1595292987
390,zhigansk,66.77,123.37,63.88,97,100,10.89,RU,1595292987
391,lagoa,39.05,-27.98,68.45,74,0,4.76,PT,1595292987
392,maningrida,-12.07,134.27,77.97,43,98,10.47,AU,1595292987
393,egvekinot,66.32,-179.17,52.95,54,0,1.03,RU,1595292988
394,iacobeni,47.43,25.32,46.99,91,2,2.57,RO,1595292988
395,fort nelson,58.81,-122.7,75.2,50,75,7.99,CA,1595292988
396,bolshaya glushitsa,50.24,43.59,62.24,73,97,1.32,RU,1595292988
397,sabang,5.89,95.32,82.89,74,100,3.87,ID,1595292988
398,polovragi,45.18,23.8,58.3,71,0,6.24,RO,1595292989
399,hornepayne,49.21,-84.77,60.98,73,0,5.06,CA,1595292989
400,henties bay,-22.12,14.28,66.0,53,0,2.21,NA,1595292989
401,longyearbyen,78.22,15.64,46.4,87,40,4.7,SJ,1595292989
402,chulman,56.85,124.91,66.27,47,0,13.58,RU,1595292989
403,fukue,32.69,128.84,80.6,94,75,10.29,JP,1595292989
404,alice springs,-23.7,133.88,50.0,87,90,11.41,AU,1595292696
405,coihaique,-45.58,-72.07,33.8,85,90,5.82,CL,1595292990
406,kudahuvadhoo,2.67,72.89,83.71,76,100,18.72,MV,1595292990
407,kununurra,-15.77,128.73,77.0,19,81,16.11,AU,1595292990
408,avera,33.19,-82.53,84.2,54,1,3.36,US,1595292768
409,maracacume,-2.04,-45.96,71.94,93,2,1.28,BR,1595292990
410,hirara,24.8,125.28,87.8,74,20,8.05,JP,1595292772
411,asheboro,35.71,-79.81,82.4,74,1,4.7,US,1595292976
412,tazovskiy,67.47,78.7,49.62,83,100,11.32,RU,1595292991
413,tindwari,25.62,80.53,85.14,71,100,10.6,IN,1595292991
414,moyobamba,-6.05,-76.97,66.27,91,0,1.66,PE,1595292991
415,roebourne,-20.78,117.13,68.59,48,0,16.4,AU,1595292991
416,kapoeta,4.77,33.59,72.43,75,100,3.67,SS,1595292992
417,maniitsoq,65.42,-52.9,49.19,89,100,7.92,GL,1595292992
418,umm lajj,25.02,37.27,85.62,59,21,10.0,SA,1595292992
419,north platte,41.12,-100.77,75.99,84,5,10.0,US,1595292854
420,svetlyy,54.67,20.13,60.8,87,40,8.95,RU,1595292992
421,manadhoo,5.77,73.38,82.69,77,100,18.1,MV,1595292992
422,shimoda,34.67,138.95,78.8,88,75,8.05,JP,1595292992
423,lodja,-3.48,23.43,69.69,48,0,0.4,CD,1595292905
424,mugur-aksy,50.35,90.5,61.79,57,96,1.1,RU,1595292993
425,petit goave,18.43,-72.87,84.2,70,100,5.82,HT,1595292993
426,olga,43.74,135.29,76.95,70,89,4.07,RU,1595292993
427,atouguia da baleia,39.34,-9.33,70.0,89,100,5.99,PT,1595292993
428,novo aripuana,-5.12,-60.38,77.11,60,81,1.48,BR,1595292754
429,anadyr,64.75,177.48,59.0,51,20,6.71,RU,1595292993
430,harper,4.38,-7.72,75.81,89,51,9.04,LR,1595292994
431,vostok,46.49,135.88,60.49,100,100,0.87,RU,1595292994
432,biloela,-24.42,150.5,66.02,52,100,10.69,AU,1595292746
433,neryungri,56.67,124.65,66.07,46,32,13.09,RU,1595292994
434,faanui,-16.48,-151.75,77.22,82,75,25.79,PF,1595292994
435,porangatu,-13.44,-49.15,67.82,44,0,2.28,BR,1595292994
436,bernay,49.17,0.67,57.0,81,0,6.73,FR,1595292995
437,lazaro cardenas,17.96,-102.2,82.96,79,0,7.72,MX,1595292995
438,ust-kuyga,70.02,135.6,82.31,44,100,6.49,RU,1595292995
439,luang prabang,19.89,102.13,77.0,94,75,0.85,LA,1595292995
440,bandarbeyla,9.49,50.81,78.87,63,43,26.8,SO,1595292995
441,lakes entrance,-37.88,147.98,55.0,72,0,1.99,AU,1595292995
442,bilibino,68.05,166.44,73.81,27,2,2.28,RU,1595292995
443,san jeronimo,-11.95,-75.28,48.83,58,0,4.18,PE,1595292996
444,fougamou,-1.22,10.58,69.71,90,99,2.01,GA,1595292996
445,kamina,-8.74,24.99,57.18,47,0,3.51,CD,1595292996
446,tahoua,14.89,5.27,84.2,62,100,9.17,NE,1595292997
447,selfoss,63.93,-21.0,43.0,88,0,2.64,IS,1595292997
448,keskin,39.67,33.61,64.99,62,0,5.01,TR,1595292997
449,carangola,-20.73,-42.03,62.37,80,0,3.18,BR,1595292804
450,plaster rock,46.91,-67.39,78.8,57,90,8.05,CA,1595292997
451,bozhou,33.88,115.77,79.05,76,100,6.8,CN,1595292998
452,black river,18.03,-77.85,78.8,88,40,3.36,JM,1595292998
453,kathu,7.92,98.33,84.0,94,20,3.36,TH,1595292998
454,basoko,1.24,23.62,70.18,84,1,2.46,CD,1595292998
455,quesnel,53.0,-122.5,80.6,34,1,2.24,CA,1595292998
456,sola,-13.88,167.55,84.2,66,75,5.82,VU,1595292998
457,tatarskaya pishlya,54.06,44.9,56.62,93,0,6.93,RU,1595292998
458,san borja,-14.82,-66.85,76.01,64,24,1.72,BO,1595292999
459,cabildo,-38.48,-61.9,46.0,99,89,4.0,AR,1595292999
460,sandpoint,48.28,-116.55,87.01,30,1,5.82,US,1595292999
461,orlik,52.52,99.83,65.41,42,1,2.89,RU,1595292999
462,wote,-1.78,37.63,58.14,87,78,1.74,KE,1595292999
463,pangai,-19.8,-174.35,78.8,78,20,4.7,TO,1595292999
464,marang,5.21,103.21,78.8,88,20,4.7,MY,1595292999
465,bayir,37.27,28.22,71.6,60,0,1.12,TR,1595293000
466,alta floresta,-9.88,-56.09,74.73,43,0,5.14,BR,1595293000
467,caravelas,-17.71,-39.25,70.59,86,34,7.07,BR,1595293000
468,guarapari,-20.67,-40.5,75.0,94,40,3.36,BR,1595292779
469,luderitz,-26.65,15.16,62.6,33,0,3.36,NA,1595293000
470,puerto montt,-41.47,-72.94,48.2,93,90,4.7,CL,1595293000
471,leningradskiy,69.38,178.42,48.27,60,0,13.24,RU,1595293000
472,boa vista,2.82,-60.67,80.6,83,40,3.36,BR,1595292775
473,kovernino,57.13,43.81,57.52,99,100,1.28,RU,1595293001
474,yatou,37.15,122.38,79.21,66,100,2.55,CN,1595293001
475,cidreira,-30.18,-50.21,66.31,79,100,6.71,BR,1595292761
476,fayaoue,-20.65,166.53,70.23,60,0,4.7,NC,1595293001
477,atar,20.52,-13.05,92.86,29,0,6.89,MR,1595293001
478,kilindoni,-7.91,39.67,76.95,71,0,18.84,TZ,1595293001
479,marzuq,14.4,46.47,80.64,45,96,11.1,YE,1595293001
480,tenenkou,14.46,-4.92,85.82,55,64,7.29,ML,1595293001
481,puerto escondido,15.85,-97.07,84.2,74,90,8.05,MX,1595292879
482,fatehpur,25.93,80.8,84.83,71,100,11.12,IN,1595293002
483,fort dodge,42.5,-94.17,78.8,65,1,10.29,US,1595292979
484,kalmunai,7.42,81.82,80.44,80,100,2.64,LK,1595293002
485,dire,12.28,-10.97,74.55,91,100,2.13,ML,1595293002
486,broken hill,-31.95,141.43,51.8,62,78,13.87,AU,1595292751
487,falmouth,50.15,-5.07,55.0,87,0,12.75,GB,1595293003
488,basco,20.45,121.97,84.79,78,6,11.9,PH,1595293003
489,khatanga,71.97,102.5,53.19,65,100,3.85,RU,1595293003
490,altay,47.87,88.12,70.81,50,100,3.42,CN,1595293003
491,aksarayskiy,46.79,48.01,78.8,69,0,2.24,RU,1595293003
492,kholuy,56.58,41.87,58.15,97,99,5.79,RU,1595293003
493,bulungu,-4.55,18.6,70.77,38,32,2.64,CD,1595293004
494,dresden,51.05,13.74,62.01,82,100,1.12,DE,1595293004
495,villa carlos paz,-31.42,-64.5,55.0,81,90,5.82,AR,1595292779
496,yar-sale,66.83,70.83,58.19,68,100,4.88,RU,1595292762
497,khandyga,62.67,135.6,79.75,41,100,10.18,RU,1595293004
498,mouila,-1.87,11.06,70.61,89,95,0.78,GA,1595293004
499,gazli,40.13,63.45,82.35,22,0,5.77,UZ,1595293005
500,petropavlovka,50.61,105.32,65.41,59,0,1.41,RU,1595293005
501,kisanga,-7.44,37.7,65.59,81,39,1.25,TZ,1595293005
502,scottsbluff,41.87,-103.67,86.0,42,1,3.02,US,1595293005
503,moranbah,-22.0,148.05,62.73,44,100,14.56,AU,1595293005
504,severodvinsk,64.56,39.83,51.8,93,0,4.47,RU,1595293005
505,sharan,54.82,54.0,58.62,91,0,2.51,RU,1595293006
506,saint joseph,39.77,-94.85,80.6,69,1,8.05,US,1595292714
507,tondano,1.3,124.91,86.0,66,20,2.24,ID,1595293006
508,la paz centro,12.34,-86.68,89.6,59,40,9.17,NI,1595293006
509,saint anthony,45.02,-93.22,80.6,42,75,4.7,US,1595293006
510,nelson,-41.28,173.28,57.99,95,94,4.0,NZ,1595293007
511,la seyne-sur-mer,43.1,5.88,71.01,95,0,4.5,FR,1595293007
512,gillette,44.29,-105.5,78.8,34,90,17.22,US,1595293007
513,soyo,-6.13,12.37,70.65,91,11,4.94,AO,1595293007
514,palu,-0.89,119.87,83.86,65,0,2.66,ID,1595292761
515,ucluelet,48.93,-125.55,71.6,60,20,10.29,CA,1595292957
516,san policarpo,12.18,125.51,84.74,78,100,4.61,PH,1595293008
517,kutum,14.2,24.67,72.54,72,0,6.96,SD,1595293008
518,galle,6.04,80.22,79.34,86,100,4.83,LK,1595293008
519,shuiji,27.42,118.34,87.37,71,96,0.92,CN,1595293009
520,olafsvik,64.89,-23.71,48.87,75,93,2.37,IS,1595293009
521,grand gaube,-20.01,57.66,69.01,57,93,3.0,MU,1595292778
522,nyagan,62.14,65.39,56.61,74,0,1.86,RU,1595293009
523,inverell,-29.78,151.12,54.0,39,95,4.0,AU,1595293009
524,buala,-8.14,159.59,82.31,80,34,10.65,SB,1595293009
525,tsumeb,-19.23,17.72,50.94,47,0,7.87,NA,1595293010
526,jumla,29.27,82.18,62.37,67,88,2.06,NP,1595293010
527,ibra,22.69,58.53,81.03,70,98,4.94,OM,1595293010
528,cauquenes,-35.97,-72.32,47.46,90,100,5.28,CL,1595293010
529,wamba,8.93,8.6,71.74,95,100,1.36,NG,1595293010
530,moreira sales,-24.06,-53.01,64.15,72,0,8.34,BR,1595293010
531,yulara,-25.24,130.99,53.6,81,90,13.87,AU,1595293011
532,muli,2.92,73.57,83.93,76,100,18.59,MV,1595293011
533,eskisehir,39.78,30.52,62.6,87,7,6.93,TR,1595293011
534,senador jose porfirio,-2.59,-51.95,78.44,69,0,4.07,BR,1595293011
535,lodeynoye pole,60.73,33.55,59.47,77,100,4.18,RU,1595293011
536,flinders,-34.58,150.86,60.01,53,19,7.0,AU,1595293011
537,stokmarknes,68.56,14.91,53.01,93,97,1.99,NO,1595293011
538,hualmay,-11.1,-77.61,59.9,85,9,8.34,PE,1595293012
539,midleton,51.92,-8.18,52.0,81,20,9.17,IE,1595293012
540,portobelo,9.55,-79.65,79.0,88,100,15.99,PA,1595293012
541,carate brianza,45.67,9.24,75.0,71,0,0.78,IT,1595293012
542,naujoji akmene,56.32,22.9,62.6,88,90,4.7,LT,1595293012
543,atambua,-9.11,124.89,79.38,52,100,2.1,ID,1595293012
544,belmonte,-15.86,-38.88,75.2,73,20,9.17,BR,1595292727
545,turukhansk,65.82,87.98,52.2,75,100,11.36,RU,1595293013
546,kostrzyn,52.4,17.23,59.0,86,56,1.99,PL,1595293013
547,lukovetskiy,64.3,41.92,51.8,93,0,4.47,RU,1595293013
548,bandiagara,14.35,-3.61,78.8,83,65,6.93,ML,1595293013
549,slyudyanka,51.66,103.71,66.0,58,24,2.57,RU,1595293013
550,verkhoyansk,67.54,133.38,84.15,49,100,7.65,RU,1595293014
551,nigde,37.83,34.75,64.54,63,0,2.42,TR,1595293014
552,semey,50.41,80.23,71.6,53,0,6.71,KZ,1595293014
553,griffith,41.53,-87.42,78.01,61,1,4.7,US,1595292786
554,ponyri,52.32,36.3,55.87,92,0,6.31,RU,1595293014
555,bocas del toro,9.33,-82.25,64.99,100,100,2.62,PA,1595293014
556,dabou,5.33,-4.38,75.2,100,75,5.82,CI,1595293015
557,nabire,-3.37,135.48,86.2,62,46,2.3,ID,1595293015
558,severnoye,56.35,78.36,58.3,83,49,11.01,RU,1595293015
559,noumea,-22.28,166.46,71.6,64,75,5.82,NC,1595293015
560,diffa,13.32,12.61,81.99,58,88,13.67,NE,1595292822
561,abha,18.22,42.51,66.2,72,100,7.74,SA,1595292812
562,chicama,-7.84,-79.15,60.94,85,22,5.5,PE,1595293015
563,samarai,-10.62,150.67,77.61,79,32,16.28,PG,1595293015
564,srednekolymsk,67.45,153.68,80.11,34,0,13.53,RU,1595293016
565,saint-augustin,51.23,-58.65,60.4,96,100,8.57,CA,1595293016
566,bubaque,11.28,-15.83,79.92,84,100,14.0,GW,1595292767
567,linxia,35.6,103.21,66.61,62,36,1.77,CN,1595293016
568,gat,31.61,34.76,78.01,66,0,0.85,IL,1595293016
569,anaconda,46.13,-112.94,78.8,26,1,8.05,US,1595293016
570,boddam,57.47,-1.78,51.8,87,0,8.05,GB,1595293016
571,dibulla,11.27,-73.31,80.17,84,12,4.38,CO,1595293017
572,sinnamary,5.38,-52.95,78.39,85,100,8.75,GF,1595293017
573,oistins,13.07,-59.53,82.4,69,20,16.11,BB,1595292749
574,namibe,-15.2,12.15,65.66,62,0,2.24,AO,1595293017
575,kapit,2.02,112.93,74.77,94,100,1.01,MY,1595293017
576,rosa zarate,0.33,-79.47,71.82,91,43,3.98,EC,1595293017
577,kidal,18.44,1.41,86.49,44,0,16.08,ML,1595293018
578,bucine,43.48,11.61,64.99,90,0,5.01,IT,1595293018
579,yumen,40.28,97.2,79.63,25,100,19.84,CN,1595293018
